[{"id": "-sjr3fdVEisP9Y5Z3MLnxQ", "alias": "kaizen-knoxville-2", "name": "Kaizen", "image_url": "https://s3-media4.fl.yelpcdn.com/bphoto/hKHnwn-cBW-v_SHOCyIk8A/o.jpg", "is_closed": false, "url": "https://www.yelp.com/biz/kaizen-knoxville-2?adjust_creative=0J6m2JIYmbFJfOB5o13wuw&utm_campaign=yelp_api_v3&utm_medium=api_v3_business_search&utm_source=0J6m2JIYmbFJfOB5o13wuw", "review_count": 289, "categories": [{"alias": "asianfusion", "title": "Asian Fusion"}, {"alias": "noodles", "title": "Noodles"}, {"alias": "cocktailbars", "title": "Cocktail Bars"}], "rating": 4.5, "coordinates": {"latitude": 35.9694209, "longitude": -83.918324}, "transactions": ["delivery"], "price": "$$", "location": {"address1": "127 S Central Ave", "address2": "", "address3": null, "city": "Knoxville", "zip_code": "37902", "country": "US", "state": "TN", "display_address": ["127 S Central Ave", "Knoxville, TN 37902"]}, "phone": "+18654094444", "display_phone": "(865) 409-4444", "distance": 1460.420271780596}, {"id": "1kqFUhwnvJ0k-BA3Ca7tHQ", "alias": "gogi-korean-kitchen-knoxville", "name": "Gogi Korean Kitchen", "image_url": "https://s3-media4.fl.yelpcdn.com/bphoto/6I52B06dQVAn62hJlqcJtQ/o.jpg", "is_closed": false, "url": "https://www.yelp.com/biz/gogi-korean-kitchen-knoxville?adjust_creative=0J6m2JIYmbFJfOB5o13wuw&utm_campaign=yelp_api_v3&utm_medium=api_v3_business_search&utm_source=0J6m2JIYmbFJfOB5o13wuw", "review_count": 30, "categories": [{"alias": "korean", "title": "Korean"}], "rating": 4.5, "coordinates": {"latitude": 35.92508469720469, "longitude": -84.0427845}, "transactions": ["delivery", "pickup"], "location": {"address1": "7818 Montvue Center Way", "address2": "", "address3": null, "city": "Knoxville", "zip_code": "37919", "country": "US", "state": "TN", "display_address": ["7818 Montvue Center Way", "Knoxville, TN 37919"]}, "phone": "+18652815797", "display_phone": "(865) 281-5797", "distance": 11229.68053510082}, {"id": "Lrz9QwH4HK8EDTkcZ8kBUg", "alias": "szechuan-garden-chinese-restaurant-knoxville", "name": "Szechuan Garden Chinese Restaurant", "image_url": "https://s3-media1.fl.yelpcdn.com/bphoto/w1jq9kboAr-nRH5ZS0t0kA/o.jpg", "is_closed": false, "url": "https://www.yelp.com/biz/szechuan-garden-chinese-restaurant-knoxville?adjust_creative=0J6m2JIYmbFJfOB5o13wuw&utm_campaign=yelp_api_v3&utm_medium=api_v3_business_search&utm_source=0J6m2JIYmbFJfOB5o13wuw", "review_count": 106, "categories": [{"alias": "chinese", "title": "Chinese"}], "rating": 4.5, "coordinates": {"latitude": 35.93579709084952, "longitude": -83.9070689}, "transactions": ["delivery"], "price": "$", "location": {"address1": "4211 Chapman Hwy", "address2": "", "address3": "", "city": "Knoxville", "zip_code": "37920", "country": "US", "state": "TN", "display_address": ["4211 Chapman Hwy", "Knoxville, TN 37920"]}, "phone": "+18655790889", "display_phone": "(865) 579-0889", "distance": 2862.5196764578586}, {"id": "vSUM4N3XKa11wGltYSMytw", "alias": "sticky-rice-cafe-knoxville", "name": "Sticky Rice Cafe", "image_url": "https://s3-media3.fl.yelpcdn.com/bphoto/Ldiod-0hS6oOwvbmpjCOQA/o.jpg", "is_closed": false, "url": "https://www.yelp.com/biz/sticky-rice-cafe-knoxville?adjust_creative=0J6m2JIYmbFJfOB5o13wuw&utm_campaign=yelp_api_v3&utm_medium=api_v3_business_search&utm_source=0J6m2JIYmbFJfOB5o13wuw", "review_count": 609, "categories": [{"alias": "laotian", "title": "Laotian"}, {"alias": "bubbletea", "title": "Bubble Tea"}], "rating": 4.5, "coordinates": {"latitude": 35.9266842496109, "longitude": -84.0435157815075}, "transactions": ["delivery"], "price": "$$", "location": {"address1": "120 Jack Dance St", "address2": "", "address3": "", "city": "Knoxville", "zip_code": "37919", "country": "US", "state": "TN", "display_address": ["120 Jack Dance St", "Knoxville, TN 37919"]}, "phone": "+18652496273", "display_phone": "(865) 249-6273", "distance": 11236.8430059285}, {"id": "YR29u_bjgrKELlfVpZO8yQ", "alias": "seoul-brothers-knoxville", "name": "Seoul Brothers", "image_url": "https://s3-media3.fl.yelpcdn.com/bphoto/HuIANlRh_18_cLwuq220ww/o.jpg", "is_closed": false, "url": "https://www.yelp.com/biz/seoul-brothers-knoxville?adjust_creative=0J6m2JIYmbFJfOB5o13wuw&utm_campaign=yelp_api_v3&utm_medium=api_v3_business_search&utm_source=0J6m2JIYmbFJfOB5o13wuw", "review_count": 26, "categories": [{"alias": "korean", "title": "Korean"}], "rating": 4.5, "coordinates": {"latitude": 35.97026, "longitude": -83.92195}, "transactions": [], "location": {"address1": "333 W Depot Ave", "address2": "", "address3": null, "city": "Knoxville", "zip_code": "37917", "country": "US", "state": "TN", "display_address": ["333 W Depot Ave", "Knoxville, TN 37917"]}, "phone": "+18659738779", "display_phone": "(865) 973-8779", "distance": 1467.360708149686}, {"id": "caxjpem5v-753unyObpfng", "alias": "q-korean-steakhouse-knoxville-3", "name": "Q Korean Steakhouse", "image_url": "https://s3-media4.fl.yelpcdn.com/bphoto/G9tu8TjnyPPydjBf7RjPTA/o.jpg", "is_closed": false, "url": "https://www.yelp.com/biz/q-korean-steakhouse-knoxville-3?adjust_creative=0J6m2JIYmbFJfOB5o13wuw&utm_campaign=yelp_api_v3&utm_medium=api_v3_business_search&utm_source=0J6m2JIYmbFJfOB5o13wuw", "review_count": 117, "categories": [{"alias": "korean", "title": "Korean"}, {"alias": "seafood", "title": "Seafood"}, {"alias": "beerbar", "title": "Beer Bar"}], "rating": 4.0, "coordinates": {"latitude": 35.9164742, "longitude": -84.0851178}, "transactions": ["delivery"], "location": {"address1": "8851 Town And Country Cir", "address2": null, "address3": "", "city": "Knoxville", "zip_code": "37923", "country": "US", "state": "TN", "display_address": ["8851 Town And Country Cir", "Knoxville, TN 37923"]}, "phone": "+18654741486", "display_phone": "(865) 474-1486", "distance": 15165.076197665803}, {"id": "qr9mEaxLSm-2pmiiwVoAUA", "alias": "bida-saigon-knoxville-2", "name": "Bida Saigon", "image_url": "https://s3-media3.fl.yelpcdn.com/bphoto/tDLKylc595-inCCT8elKPQ/o.jpg", "is_closed": false, "url": "https://www.yelp.com/biz/bida-saigon-knoxville-2?adjust_creative=0J6m2JIYmbFJfOB5o13wuw&utm_campaign=yelp_api_v3&utm_medium=api_v3_business_search&utm_source=0J6m2JIYmbFJfOB5o13wuw", "review_count": 345, "categories": [{"alias": "vietnamese", "title": "Vietnamese"}], "rating": 4.0, "coordinates": {"latitude": 35.9229926146895, "longitude": -84.0498430042297}, "transactions": ["delivery"], "price": "$", "location": {"address1": "8078 Kingston Pike", "address2": "Ste 165 & 167", "address3": "", "city": "Knoxville", "zip_code": "37919", "country": "US", "state": "TN", "display_address": ["8078 Kingston Pike", "Ste 165 & 167", "Knoxville, TN 37919"]}, "phone": "+18656945999", "display_phone": "(865) 694-5999", "distance": 11906.28919438066}, {"id": "AefbTZ6lsJFsPRbyVOgCZQ", "alias": "asia-kitchen-knoxville", "name": "Asia Kitchen", "image_url": "https://s3-media2.fl.yelpcdn.com/bphoto/x5l8K30khdJXdp62H-bwzQ/o.jpg", "is_closed": false, "url": "https://www.yelp.com/biz/asia-kitchen-knoxville?adjust_creative=0J6m2JIYmbFJfOB5o13wuw&utm_campaign=yelp_api_v3&utm_medium=api_v3_business_search&utm_source=0J6m2JIYmbFJfOB5o13wuw", "review_count": 244, "categories": [{"alias": "chinese", "title": "Chinese"}, {"alias": "asianfusion", "title": "Asian Fusion"}], "rating": 4.0, "coordinates": {"latitude": 35.9226273945922, "longitude": -84.0638499816147}, "transactions": ["delivery"], "price": "$$", "location": {"address1": "8511 Kingston Pike", "address2": "", "address3": "", "city": "Knoxville", "zip_code": "37919", "country": "US", "state": "TN", "display_address": ["8511 Kingston Pike", "Knoxville, TN 37919"]}, "phone": "+18656709858", "display_phone": "(865) 670-9858", "distance": 13118.960308811262}, {"id": "9Wt7Yj8SmXnHbhY7uxkF8Q", "alias": "fin-two-japanese-ale-house-knoxville", "name": "Fin-Two Japanese Ale House", "image_url": "https://s3-media4.fl.yelpcdn.com/bphoto/7mAzFjCVX0TVYigay7UsNw/o.jpg", "is_closed": false, "url": "https://www.yelp.com/biz/fin-two-japanese-ale-house-knoxville?adjust_creative=0J6m2JIYmbFJfOB5o13wuw&utm_campaign=yelp_api_v3&utm_medium=api_v3_business_search&utm_source=0J6m2JIYmbFJfOB5o13wuw", "review_count": 128, "categories": [{"alias": "japanese", "title": "Japanese"}, {"alias": "sushi", "title": "Sushi Bars"}, {"alias": "beerbar", "title": "Beer Bar"}], "rating": 4.0, "coordinates": {"latitude": 35.96978, "longitude": -83.91798}, "transactions": ["delivery"], "price": "$$", "location": {"address1": "122 S Central Ave", "address2": "", "address3": null, "city": "Knoxville", "zip_code": "37902", "country": "US", "state": "TN", "display_address": ["122 S Central Ave", "Knoxville, TN 37902"]}, "phone": "+18654373105", "display_phone": "(865) 437-3105", "distance": 1513.2466258019267}, {"id": "Z_pTBHb-9FxGH-e3KPhnjg", "alias": "tangerine-japanese-cuisine-knoxville", "name": "Tangerine Japanese Cuisine", "image_url": "https://s3-media4.fl.yelpcdn.com/bphoto/OGnWEffiPHdtUWCe8X6BWw/o.jpg", "is_closed": false, "url": "https://www.yelp.com/biz/tangerine-japanese-cuisine-knoxville?adjust_creative=0J6m2JIYmbFJfOB5o13wuw&utm_campaign=yelp_api_v3&utm_medium=api_v3_business_search&utm_source=0J6m2JIYmbFJfOB5o13wuw", "review_count": 135, "categories": [{"alias": "japanese", "title": "Japanese"}, {"alias": "sushi", "title": "Sushi Bars"}], "rating": 4.5, "coordinates": {"latitude": 36.0332732056386, "longitude": -83.8687546912628}, "transactions": ["delivery"], "price": "$$", "location": {"address1": "5328 Millertown Pike", "address2": "", "address3": "", "city": "Knoxville", "zip_code": "37924", "country": "US", "state": "TN", "display_address": ["5328 Millertown Pike", "Knoxville, TN 37924"]}, "phone": "+18655210688", "display_phone": "(865) 521-0688", "distance": 9827.472080113848}, {"id": "KwiQJnmuJvZb2_6znkkCoA", "alias": "pin-thai-farragut-2", "name": "Pin Thai", "image_url": "https://s3-media1.fl.yelpcdn.com/bphoto/upUP0NjF-J1TibUGFTOUsg/o.jpg", "is_closed": false, "url": "https://www.yelp.com/biz/pin-thai-farragut-2?adjust_creative=0J6m2JIYmbFJfOB5o13wuw&utm_campaign=yelp_api_v3&utm_medium=api_v3_business_search&utm_source=0J6m2JIYmbFJfOB5o13wuw", "review_count": 57, "categories": [{"alias": "thai", "title": "Thai"}], "rating": 4.5, "coordinates": {"latitude": 35.8970546, "longitude": -84.1755337}, "transactions": ["delivery", "pickup"], "location": {"address1": "723 N Campbell Station Rd", "address2": "", "address3": null, "city": "Farragut", "zip_code": "37934", "country": "US", "state": "TN", "display_address": ["723 N Campbell Station Rd", "Farragut, TN 37934"]}, "phone": "+18653921135", "display_phone": "(865) 392-1135", "distance": 23610.040892302222}, {"id": "HmIVdaPr_poNGSp-jLaHfw", "alias": "philippine-connection-carry-out-food-knoxville", "name": "Philippine Connection Carry Out Food", "image_url": "https://s3-media2.fl.yelpcdn.com/bphoto/y4h9h0fRYR3w0SqNk-YsRA/o.jpg", "is_closed": false, "url": "https://www.yelp.com/biz/philippine-connection-carry-out-food-knoxville?adjust_creative=0J6m2JIYmbFJfOB5o13wuw&utm_campaign=yelp_api_v3&utm_medium=api_v3_business_search&utm_source=0J6m2JIYmbFJfOB5o13wuw", "review_count": 24, "categories": [{"alias": "filipino", "title": "Filipino"}], "rating": 4.0, "coordinates": {"latitude": 35.9960479736328, "longitude": -83.8848419189453}, "transactions": [], "price": "$", "location": {"address1": "3225 E Magnolia Ave", "address2": "", "address3": "", "city": "Knoxville", "zip_code": "37914", "country": "US", "state": "TN", "display_address": ["3225 E Magnolia Ave", "Knoxville, TN 37914"]}, "phone": "+18655225276", "display_phone": "(865) 522-5276", "distance": 5598.875824800405}, {"id": "JkaCDXwyw8yp6cKDe0-zLQ", "alias": "tuk-tuk-thai-fusion-no-title", "name": "Tuk Tuk Thai Fusion", "image_url": "https://s3-media4.fl.yelpcdn.com/bphoto/s4QKg03Tvcafn7VXOAdMZw/o.jpg", "is_closed": false, "url": "https://www.yelp.com/biz/tuk-tuk-thai-fusion-no-title?adjust_creative=0J6m2JIYmbFJfOB5o13wuw&utm_campaign=yelp_api_v3&utm_medium=api_v3_business_search&utm_source=0J6m2JIYmbFJfOB5o13wuw", "review_count": 72, "categories": [{"alias": "asianfusion", "title": "Asian Fusion"}, {"alias": "thai", "title": "Thai"}], "rating": 4.5, "coordinates": {"latitude": 35.91141, "longitude": -84.0888}, "transactions": ["delivery", "pickup"], "price": "$$", "location": {"address1": "9253 Kingston Pike", "address2": null, "address3": "", "city": "Knoxville", "zip_code": "37922", "country": "US", "state": "TN", "display_address": ["9253 Kingston Pike", "Knoxville, TN 37922"]}, "phone": "+18657375159", "display_phone": "(865) 737-5159", "distance": 15717.422043782342}, {"id": "gtOTnxccihNuzO-kQPnXRA", "alias": "surin-of-thailand-knoxville", "name": "Surin of Thailand", "image_url": "https://s3-media4.fl.yelpcdn.com/bphoto/iHlohEQqNlMCb8UR7vXoTA/o.jpg", "is_closed": false, "url": "https://www.yelp.com/biz/surin-of-thailand-knoxville?adjust_creative=0J6m2JIYmbFJfOB5o13wuw&utm_campaign=yelp_api_v3&utm_medium=api_v3_business_search&utm_source=0J6m2JIYmbFJfOB5o13wuw", "review_count": 309, "categories": [{"alias": "thai", "title": "Thai"}], "rating": 4.0, "coordinates": {"latitude": 35.9324238755324, "longitude": -84.0048946455124}, "transactions": ["delivery", "pickup"], "price": "$$", "location": {"address1": "6213 Kingston Pike", "address2": "", "address3": "", "city": "Knoxville", "zip_code": "37919", "country": "US", "state": "TN", "display_address": ["6213 Kingston Pike", "Knoxville, TN 37919"]}, "phone": "+18653300007", "display_phone": "(865) 330-0007", "distance": 7753.680809031957}, {"id": "CXc7TSzwXtOblMvadviOSQ", "alias": "landing-house-knoxville", "name": "Landing House", "image_url": "https://s3-media2.fl.yelpcdn.com/bphoto/cIkcMGy_8XBipEWom6xdPw/o.jpg", "is_closed": false, "url": "https://www.yelp.com/biz/landing-house-knoxville?adjust_creative=0J6m2JIYmbFJfOB5o13wuw&utm_campaign=yelp_api_v3&utm_medium=api_v3_business_search&utm_source=0J6m2JIYmbFJfOB5o13wuw", "review_count": 91, "categories": [{"alias": "chinese", "title": "Chinese"}, {"alias": "cambodian", "title": "Cambodian"}, {"alias": "french", "title": "French"}], "rating": 4.0, "coordinates": {"latitude": 35.96027777675382, "longitude": -83.90307074499287}, "transactions": ["delivery"], "price": "$$", "location": {"address1": "1147 Sevier Ave", "address2": "", "address3": null, "city": "Knoxville", "zip_code": "37920", "country": "US", "state": "TN", "display_address": ["1147 Sevier Ave", "Knoxville, TN 37920"]}, "phone": "+18652497424", "display_phone": "(865) 249-7424", "distance": 1962.415905764952}, {"id": "wqLSTPlop9tQ5O0JH7kzWw", "alias": "chaiyo-thai-and-sushi-bar-knoxville", "name": "Chaiyo Thai & Sushi Bar", "image_url": "https://s3-media2.fl.yelpcdn.com/bphoto/emUAsrH3oPDOdPLD7a0XWg/o.jpg", "is_closed": false, "url": "https://www.yelp.com/biz/chaiyo-thai-and-sushi-bar-knoxville?adjust_creative=0J6m2JIYmbFJfOB5o13wuw&utm_campaign=yelp_api_v3&utm_medium=api_v3_business_search&utm_source=0J6m2JIYmbFJfOB5o13wuw", "review_count": 140, "categories": [{"alias": "thai", "title": "Thai"}, {"alias": "sushi", "title": "Sushi Bars"}], "rating": 4.0, "coordinates": {"latitude": 35.959541, "longitude": -83.9293528329405}, "transactions": ["delivery", "pickup"], "price": "$$", "location": {"address1": "601 James Agee St", "address2": null, "address3": null, "city": "Knoxville", "zip_code": "37916", "country": "US", "state": "TN", "display_address": ["601 James Agee St", "Knoxville, TN 37916"]}, "phone": "+18652498081", "display_phone": "(865) 249-8081", "distance": 498.3750711479921}, {"id": "H4EW_19k_xX8OjcEEGdb9A", "alias": "jai-dee-thai-kitchen-knoxville", "name": "Jai Dee Thai Kitchen", "image_url": "https://s3-media2.fl.yelpcdn.com/bphoto/Nwh387ym2Qbm72dGN1e4kw/o.jpg", "is_closed": false, "url": "https://www.yelp.com/biz/jai-dee-thai-kitchen-knoxville?adjust_creative=0J6m2JIYmbFJfOB5o13wuw&utm_campaign=yelp_api_v3&utm_medium=api_v3_business_search&utm_source=0J6m2JIYmbFJfOB5o13wuw", "review_count": 105, "categories": [{"alias": "thai", "title": "Thai"}, {"alias": "asianfusion", "title": "Asian Fusion"}, {"alias": "icecream", "title": "Ice Cream & Frozen Yogurt"}], "rating": 4.5, "coordinates": {"latitude": 35.9561768, "longitude": -83.9323807}, "transactions": ["delivery", "pickup"], "price": "$$", "location": {"address1": "823 Melrose Pl", "address2": "", "address3": "", "city": "Knoxville", "zip_code": "37916", "country": "US", "state": "TN", "display_address": ["823 Melrose Pl", "Knoxville, TN 37916"]}, "phone": "+18652497539", "display_phone": "(865) 249-7539", "distance": 695.9256617479277}, {"id": "6-mv5IFsVOOL6aab1a4HpA", "alias": "thai-time-knoxville", "name": "Thai Time", "image_url": "https://s3-media2.fl.yelpcdn.com/bphoto/oXceyxh1IHjNSHsmpbPiCw/o.jpg", "is_closed": false, "url": "https://www.yelp.com/biz/thai-time-knoxville?adjust_creative=0J6m2JIYmbFJfOB5o13wuw&utm_campaign=yelp_api_v3&utm_medium=api_v3_business_search&utm_source=0J6m2JIYmbFJfOB5o13wuw", "review_count": 4, "categories": [{"alias": "thai", "title": "Thai"}, {"alias": "desserts", "title": "Desserts"}], "rating": 5.0, "coordinates": {"latitude": 35.921542, "longitude": -83.874781}, "transactions": ["delivery", "pickup"], "location": {"address1": "6200 Chapman Hwy", "address2": "", "address3": null, "city": "Knoxville", "zip_code": "37920", "country": "US", "state": "TN", "display_address": ["6200 Chapman Hwy", "Knoxville, TN 37920"]}, "phone": "+18652537185", "display_phone": "(865) 253-7185", "distance": 5989.004556041439}, {"id": "ARMhMfwNWu4F78J9xJQ8Bg", "alias": "anaba-japanese-cuisine-northshore-knoxville", "name": "Anaba Japanese Cuisine-Northshore", "image_url": "https://s3-media3.fl.yelpcdn.com/bphoto/KUrpMi7vq7CIVV9pRli8eQ/o.jpg", "is_closed": false, "url": "https://www.yelp.com/biz/anaba-japanese-cuisine-northshore-knoxville?adjust_creative=0J6m2JIYmbFJfOB5o13wuw&utm_campaign=yelp_api_v3&utm_medium=api_v3_business_search&utm_source=0J6m2JIYmbFJfOB5o13wuw", "review_count": 189, "categories": [{"alias": "sushi", "title": "Sushi Bars"}, {"alias": "ramen", "title": "Ramen"}], "rating": 4.0, "coordinates": {"latitude": 35.8641, "longitude": -84.06415}, "transactions": ["delivery"], "price": "$$", "location": {"address1": "9405 S Northshore Dr", "address2": "", "address3": "", "city": "Knoxville", "zip_code": "37922", "country": "US", "state": "TN", "display_address": ["9405 S Northshore Dr", "Knoxville, TN 37922"]}, "phone": "+18655312363", "display_phone": "(865) 531-2363", "distance": 16278.70615762983}, {"id": "55tkqqsi2hmd_CPnMXb2XQ", "alias": "ichiban-asian-cuisine-knoxville", "name": "Ichiban Asian Cuisine", "image_url": "https://s3-media1.fl.yelpcdn.com/bphoto/ygVC6PFOZcRMA-64pivUaw/o.jpg", "is_closed": false, "url": "https://www.yelp.com/biz/ichiban-asian-cuisine-knoxville?adjust_creative=0J6m2JIYmbFJfOB5o13wuw&utm_campaign=yelp_api_v3&utm_medium=api_v3_business_search&utm_source=0J6m2JIYmbFJfOB5o13wuw", "review_count": 87, "categories": [{"alias": "chinese", "title": "Chinese"}], "rating": 4.5, "coordinates": {"latitude": 35.9054607332768, "longitude": -84.0196344140362}, "transactions": ["delivery", "pickup"], "price": "$$", "location": {"address1": "7507 S Northshore Dr", "address2": "", "address3": "", "city": "Knoxville", "zip_code": "37919", "country": "US", "state": "TN", "display_address": ["7507 S Northshore Dr", "Knoxville, TN 37919"]}, "phone": "+18656907999", "display_phone": "(865) 690-7999", "distance": 10319.746911202417}]